{
"type": "FeatureCollection",
"crs": { "type": "name", "properties": { "name": "urn:ogc:def:crs:OGC:1.3:CRS84" } },
                                                                                
"features": [
{ "type": "Feature", "properties": { "OID_": 0, "Name": "Park n Shop", "Address": "Trans-Amadi Road,", "Community": "Port Harcourt", "LGA": "Port Harcourt", "State": "Rivers State", "Longitude": 7.008699, "Latitude": 4.806084 }, "geometry": { "type": "Point", "coordinates": [ 7.008699, 4.806084, 0.0 ] } },
{ "type": "Feature", "properties": { "OID_": 0, "Name": "Next Time Supermarket", "Address": "Sani Abacha Road", "Community": "Port Harcourt", "LGA": "Port Harcourt", "State": "Rivers State", "Longitude": 6.990468, "Latitude": 4.814638 }, "geometry": { "type": "Point", "coordinates": [ 6.990468, 4.814638, 0.0 ] } },
{ "type": "Feature", "properties": { "OID_": 0, "Name": "Everyday Supermarket", "Address": "Woji Road", "Community": "Rumueme", "LGA": "Port Harcourt", "State": "River State", "Longitude": 7.001998, "Latitude": 4.813445 }, "geometry": { "type": "Point", "coordinates": [ 7.001998, 4.813445, 0.0 ] } },
{ "type": "Feature", "properties": { "OID_": 0, "Name": "Happy Bite", "Address": "Lord Emmanuel Drive, Opp. NAF Base", "Community": "Port Harcourt", "LGA": "Obio\/Akpor", "State": "Rivers State", "Longitude": 7.017073, "Latitude": 4.835717 }, "geometry": { "type": "Point", "coordinates": [ 7.017073, 4.835717, 0.0 ] } },
{ "type": "Feature", "properties": { "OID_": 0, "Name": "Calymap Supermarket", "Address": "179 Old Refinery Rd, Elelenwo-Portharcourt", "Community": "Elelenwo", "LGA": "Obio\/Akpor", "State": "Rivers State", "Longitude": 7.070140, "Latitude": 4.831030 }, "geometry": { "type": "Point", "coordinates": [ 7.07014, 4.83103, 0.0 ] } },
{ "type": "Feature", "properties": { "OID_": 0, "Name": "De Chosen Supermarket", "Address": "10 Nvuigwe Road", "Community": "Woji Town", "LGA": "Port Harcourt", "State": "Rivers State", "Longitude": 7.059930, "Latitude": 4.818480 }, "geometry": { "type": "Point", "coordinates": [ 7.05993, 4.81848, 0.0 ] } },
{ "type": "Feature", "properties": { "OID_": 0, "Name": "Jesus the Saviour Supermarket", "Address": "Woji Estate Road, By YKC Junction", "Community": "Woji Town", "LGA": "Port Harcourt", "State": "Rivers State", "Longitude": 7.054140, "Latitude": 4.821630 }, "geometry": { "type": "Point", "coordinates": [ 7.05414, 4.82163, 0.0 ] } },
{ "type": "Feature", "properties": { "OID_": 0, "Name": "Quicksave Supermarket", "Address": "Killimanjaro Complex, Ykc Junction", "Community": "Woji Town", "LGA": "Port Harcourt", "State": "Rivers State", "Longitude": 7.053640, "Latitude": 4.822440 }, "geometry": { "type": "Point", "coordinates": [ 7.05364, 4.82244, 0.0 ] } },
{ "type": "Feature", "properties": { "OID_": 0, "Name": "Welldone Supermarket", "Address": "Igwuruta Road, Port Harcourt", "Community": "Elimbu", "LGA": "Obio\/Akpor", "State": "Rivers State", "Longitude": 7.054599, "Latitude": 4.869805 }, "geometry": { "type": "Point", "coordinates": [ 7.054599, 4.869805, 0.0 ] } },
{ "type": "Feature", "properties": { "OID_": 0, "Name": "Linjo Supermarket", "Address": "Etim Okpoyo Close, Off PH-Aba Expressway", "Community": "Port Harcourt", "LGA": "Obio\/Akpor", "State": "Rivers State", "Longitude": 7.029425, "Latitude": 4.839425 }, "geometry": { "type": "Point", "coordinates": [ 7.029425, 4.839425, 0.0 ] } },
{ "type": "Feature", "properties": { "OID_": 0, "Name": "Chanrais Supermarket", "Address": "Off PH-Aba Expressway", "Community": "Port Harcourt", "LGA": "Port Harcourt", "State": "Rivers State", "Longitude": 7.001214, "Latitude": 4.791852 }, "geometry": { "type": "Point", "coordinates": [ 7.001214, 4.791852, 0.0 ] } },
{ "type": "Feature", "properties": { "OID_": 0, "Name": "Everyday Supermarket", "Address": "2 Elelenwo Street, Port Harcourt,", "Community": "Rumuola", "LGA": "Obio\/Akpor", "State": "Rivers State", "Longitude": 6.993770, "Latitude": 4.827185 }, "geometry": { "type": "Point", "coordinates": [ 6.99377, 4.827185, 0.0 ] } },
{ "type": "Feature", "properties": { "OID_": 0, "Name": "Success Super Stores", "Address": "1 Rumuokuta Junction Rumuola Road, PH", "Community": "Rumuokwuta", "LGA": "Obio\/Akpor", "State": "Rivers State", "Longitude": 6.988830, "Latitude": 4.837360 }, "geometry": { "type": "Point", "coordinates": [ 6.98883, 4.83736, 0.0 ] } },
{ "type": "Feature", "properties": { "OID_": 0, "Name": "Phantmall", "Address": "Opp. Shell Petroleum Development Company", "Community": "Port Harcourt", "LGA": "Obio\/Akpor", "State": "Rivers State", "Longitude": 7.033546, "Latitude": 4.824165 }, "geometry": { "type": "Point", "coordinates": [ 7.033546, 4.824165, 0.0 ] } },
{ "type": "Feature", "properties": { "OID_": 0, "Name": "Confidence Shopping Mall", "Address": "Ikwerre Road, Port Harcourt", "Community": "Rumuokoro", "LGA": "Obio\/Akpor", "State": "Rivers State", "Longitude": 6.996853, "Latitude": 4.866671 }, "geometry": { "type": "Point", "coordinates": [ 6.996853, 4.866671, 0.0 ] } },
{ "type": "Feature", "properties": { "OID_": 0, "Name": "Township Mega Plaza", "Address": "89, Aggrey Road, Port Harcourt", "Community": "Port Harcourt", "LGA": "Port Harcourt", "State": "Rivers State", "Longitude": 7.023463, "Latitude": 4.761571 }, "geometry": { "type": "Point", "coordinates": [ 7.023457550244491, 4.761574618325688, 0.0 ] } },
{ "type": "Feature", "properties": { "OID_": 0, "Name": "SOGAAN MALL", "Address": "Elelenwo Street, Port Harcourt", "Community": "Port Harcourt", "LGA": "Obio\/Akpor", "State": "Rivers State", "Longitude": 6.999378, "Latitude": 4.825330 }, "geometry": { "type": "Point", "coordinates": [ 6.999378, 4.82533, 0.0 ] } },
{ "type": "Feature", "properties": { "OID_": 0, "Name": "Port Harcourt City Mall", "Address": "1, Azikiwe Rd, Port Harcourt", "Community": "Port Harcourt", "LGA": "Port Harcourt", "State": "Rivers State", "Longitude": 7.012647, "Latitude": 4.774788 }, "geometry": { "type": "Point", "coordinates": [ 7.012647, 4.774788, 0.0 ] } },
{ "type": "Feature", "properties": { "OID_": 0, "Name": "Kingsmall", "Address": "Plot 110 East - West Road", "Community": "Rumuodara", "LGA": "Obio\/Akpor", "State": "Rivers State", "Longitude": 7.031765, "Latitude": 4.861272 }, "geometry": { "type": "Point", "coordinates": [ 7.031765, 4.861272, 0.0 ] } },
{ "type": "Feature", "properties": { "OID_": 0, "Name": "Metropark", "Address": "Plot 6A Abacha Road", "Community": "Port Harcourt", "LGA": "Port Harcourt", "State": "Rivers State", "Longitude": 6.995008, "Latitude": 4.816692 }, "geometry": { "type": "Point", "coordinates": [ 6.995008, 4.816692, 0.0 ] } },
{ "type": "Feature", "properties": { "OID_": 0, "Name": "The Spar", "Address": "1, Azikiwe Rd, Port Harcourt,", "Community": "Port Harcourt", "LGA": "Port Harcourt", "State": "Rivers State", "Longitude": 7.012647, "Latitude": 4.774788 }, "geometry": { "type": "Point", "coordinates": [ 7.012647, 4.774788, 0.0 ] } },
{ "type": "Feature", "properties": { "OID_": 0, "Name": "Richie Supermarket", "Address": "6 Market Road,", "Community": "Rumuomasi", "LGA": "Obio\/Akpor", "State": "Rivers State", "Longitude": 7.025468, "Latitude": 4.834251 }, "geometry": { "type": "Point", "coordinates": [ 7.025467800000058, 4.834250900000029, 0.0 ] } },
{ "type": "Feature", "properties": { "OID_": 0, "Name": "Welcome U Supermarket", "Address": "Woji Road", "Community": "Port Harcourt", "LGA": "Obio\/Akpor", "State": "Rivers State", "Longitude": 7.048730, "Latitude": 4.829433 }, "geometry": { "type": "Point", "coordinates": [ 7.04873, 4.829433, 0.0 ] } },
{ "type": "Feature", "properties": { "OID_": 0, "Name": "New Life Supermarket", "Address": "Station Road, By Aggrey Road", "Community": "Port Harcourt", "LGA": "Port Harcourt", "State": "Rivers State", "Longitude": 7.016559, "Latitude": 4.761176 }, "geometry": { "type": "Point", "coordinates": [ 7.016559, 4.761176, 0.0 ] } },
{ "type": "Feature", "properties": { "OID_": 0, "Name": "Udo Shopping Mall", "Address": "IBB Avenue", "Community": "Uyo", "LGA": "Uyo", "State": "Akwa Ibom", "Longitude": 7.918820, "Latitude": 5.013179 }, "geometry": { "type": "Point", "coordinates": [ 7.91882, 5.013179, 0.0 ] } },
{ "type": "Feature", "properties": { "OID_": 0, "Name": "Shopping Mall", "Address": "Abak Road, By Federal Secretariat", "Community": "Uyo", "LGA": "Uyo", "State": "Akwa Ibom", "Longitude": 7.888205, "Latitude": 5.019554 }, "geometry": { "type": "Point", "coordinates": [ 7.888205, 5.019554, 0.0 ] } },
{ "type": "Feature", "properties": { "OID_": 0, "Name": "Phantmall Online Shopping Company", "Address": "Adadiaha Street", "Community": "Ikot Ekpene", "LGA": "Ikot Ekpene", "State": "Akwa Ibom", "Longitude": 7.709500, "Latitude": 5.182179 }, "geometry": { "type": "Point", "coordinates": [ 7.7095, 5.182179, 0.0 ] } },
{ "type": "Feature", "properties": { "OID_": 0, "Name": "City Centre", "Address": "NEPA Line", "Community": "Uyo", "LGA": "Uyo", "State": "Akwa Ibom", "Longitude": 7.920483, "Latitude": 5.028592 }, "geometry": { "type": "Point", "coordinates": [ 7.920483, 5.028592, 0.0 ] } },
{ "type": "Feature", "properties": { "OID_": 0, "Name": "Murg Shopping Mall", "Address": "Liverpool Road", "Community": "Eket", "LGA": "Eket", "State": "Akwa Ibom", "Longitude": 7.919179, "Latitude": 4.643659 }, "geometry": { "type": "Point", "coordinates": [ 7.919179, 4.643659, 0.0 ] } },
{ "type": "Feature", "properties": { "OID_": 0, "Name": "AF Stores", "Address": "Afaha Abia Road", "Community": "Nsit Ibom", "LGA": "Nsit Ibom", "State": "Akwa Ibom", "Longitude": 7.898408, "Latitude": 4.947513 }, "geometry": { "type": "Point", "coordinates": [ 7.898408, 4.947513, 0.0 ] } },
{ "type": "Feature", "properties": { "OID_": 0, "Name": "De Giant Supermarket", "Address": "Oron Road", "Community": "Uyo", "LGA": "Uyo", "State": "Akwa Ibom", "Longitude": 7.935446, "Latitude": 5.025446 }, "geometry": { "type": "Point", "coordinates": [ 7.935446, 5.025446, 0.0 ] } },
{ "type": "Feature", "properties": { "OID_": 0, "Name": "Nteps Supermarket", "Address": "98, Oron Road", "Community": "Uyo", "LGA": "Uyo", "State": "Akwa Ibom", "Longitude": 7.934811, "Latitude": 5.027027 }, "geometry": { "type": "Point", "coordinates": [ 7.934811, 5.027027, 0.0 ] } },
{ "type": "Feature", "properties": { "OID_": 0, "Name": "Merit Supermarket", "Address": "Nwaniba Road", "Community": "Uyo", "LGA": "Uyo", "State": "Akwa Ibom", "Longitude": 7.946106, "Latitude": 5.026981 }, "geometry": { "type": "Point", "coordinates": [ 7.946106, 5.026981, 0.0 ] } },
{ "type": "Feature", "properties": { "OID_": 0, "Name": "Doresk Supermarket", "Address": "121b Nwaniba Road, Uyo", "Community": "Uyo", "LGA": "Uyo", "State": "Akwa Ibom", "Longitude": 7.946705, "Latitude": 5.026885 }, "geometry": { "type": "Point", "coordinates": [ 7.946705, 5.026885, 0.0 ] } },
{ "type": "Feature", "properties": { "OID_": 0, "Name": "Metropolitan Super Market", "Address": "Nwaniba Road", "Community": "Uyo", "LGA": "Uyo", "State": "Akwa Ibom", "Longitude": 7.934644, "Latitude": 5.029360 }, "geometry": { "type": "Point", "coordinates": [ 7.934644, 5.02936, 0.0 ] } },
{ "type": "Feature", "properties": { "OID_": 0, "Name": "Divine Favour", "Address": "Murtala Mohammed Way", "Community": "Calabar", "LGA": "Calabar Municipal", "State": "Cross River", "Longitude": 8.331950, "Latitude": 4.985716 }, "geometry": { "type": "Point", "coordinates": [ 8.33195, 4.985716, 0.0 ] } },
{ "type": "Feature", "properties": { "OID_": 0, "Name": "Central Supermarket", "Address": "Oron Road", "Community": "Uyo", "LGA": "Uyo", "State": "Akwa Ibom", "Longitude": 7.933516, "Latitude": 5.030681 }, "geometry": { "type": "Point", "coordinates": [ 7.933516, 5.030681, 0.0 ] } },
{ "type": "Feature", "properties": { "OID_": 0, "Name": "Oxford Supermarket", "Address": "Ikot Ekpene Road", "Community": "Uyo", "LGA": "Uyo", "State": "Akwa Ibom", "Longitude": 7.931136, "Latitude": 5.033056 }, "geometry": { "type": "Point", "coordinates": [ 7.931136, 5.033056, 0.0 ] } },
{ "type": "Feature", "properties": { "OID_": 0, "Name": "Edidiong-Obong Supermarket", "Address": "Etembom Street", "Community": "Eket", "LGA": "Eket", "State": "Akwa Ibom", "Longitude": 7.943264, "Latitude": 4.632462 }, "geometry": { "type": "Point", "coordinates": [ 7.943264, 4.632462, 0.0 ] } },
{ "type": "Feature", "properties": { "OID_": 0, "Name": "Eni Stores (Freshmart)", "Address": "Edet Akpan Avenue, 4 Lane", "Community": "Uyo", "LGA": "Uyo", "State": "Akwa Ibom", "Longitude": 7.945621, "Latitude": 5.005757 }, "geometry": { "type": "Point", "coordinates": [ 7.945621, 5.005757, 0.0 ] } },
{ "type": "Feature", "properties": { "OID_": 0, "Name": "Richway Supermaket", "Address": "Nwaniba Road", "Community": "Uyo", "LGA": "Uyo", "State": "Akwa Ibom", "Longitude": 7.944568, "Latitude": 5.027370 }, "geometry": { "type": "Point", "coordinates": [ 7.944568, 5.02737, 0.0 ] } },
{ "type": "Feature", "properties": { "OID_": 0, "Name": "Olympic Shopping Center", "Address": "Oron Road", "Community": "Uyo", "LGA": "Uyo", "State": "Akwa Ibom", "Longitude": 7.934599, "Latitude": 5.028945 }, "geometry": { "type": "Point", "coordinates": [ 7.934599, 5.028945, 0.0 ] } },
{ "type": "Feature", "properties": { "OID_": 0, "Name": "Tinapa Shopping Mall", "Address": "Tinapa", "Community": "Adiabo Ikot Mbo", "LGA": "Odukpani", "State": "Cross River", "Longitude": 8.319955, "Latitude": 5.051018 }, "geometry": { "type": "Point", "coordinates": [ 8.319955, 5.051018, 0.0 ] } },
{ "type": "Feature", "properties": { "OID_": 0, "Name": "Big Qua Shopping Complex", "Address": "Big Qua Road, Oqua Street", "Community": "Calabar", "LGA": "Calabar Municipal", "State": "Cross River", "Longitude": 8.328678, "Latitude": 4.968486 }, "geometry": { "type": "Point", "coordinates": [ 8.328678, 4.968486, 0.0 ] } },
{ "type": "Feature", "properties": { "OID_": 0, "Name": "Le Chateau", "Address": "MCC Road", "Community": "Calabar", "LGA": "Calabar Municipal", "State": "Cross River", "Longitude": 8.341187, "Latitude": 4.990364 }, "geometry": { "type": "Point", "coordinates": [ 8.341187, 4.990364, 0.0 ] } },
{ "type": "Feature", "properties": { "OID_": 0, "Name": "Hennyplan Supermarket", "Address": "Ndidem Usang Iso Road", "Community": "Calabar", "LGA": "Calabar Municipal", "State": "Cross River", "Longitude": 8.341785, "Latitude": 4.980396 }, "geometry": { "type": "Point", "coordinates": [ 8.341785, 4.980396, 0.0 ] } },
{ "type": "Feature", "properties": { "OID_": 0, "Name": "Edna and Son's Supermarket", "Address": "Mount Zion Rd, Calabar", "Community": "Calabar", "LGA": "Calabar Municipal", "State": "Cross River", "Longitude": 8.340422, "Latitude": 4.945441 }, "geometry": { "type": "Point", "coordinates": [ 8.340422, 4.945441, 0.0 ] } },
{ "type": "Feature", "properties": { "OID_": 0, "Name": "Calabar Retailment Centre", "Address": "Calabar Cultural Centre", "Community": "Calabar", "LGA": "Calabar Municipal", "State": "Cross River", "Longitude": 8.325035, "Latitude": 4.962101 }, "geometry": { "type": "Point", "coordinates": [ 8.325035, 4.962101, 0.0 ] } },
{ "type": "Feature", "properties": { "OID_": 0, "Name": "Friendly Supermarket", "Address": "Government House Road, Ilukwu Illah", "Community": "Asaba", "LGA": "Oshimili South", "State": "Delta", "Longitude": 6.700046, "Latitude": 6.209269 }, "geometry": { "type": "Point", "coordinates": [ 6.700046, 6.209269, 0.0 ] } },
{ "type": "Feature", "properties": { "OID_": 0, "Name": "Charles White Plaza", "Address": "Nnebisi Road, Ogbeogonogo", "Community": "Asaba", "LGA": "Oshimili South", "State": "Delta", "Longitude": 6.733491, "Latitude": 6.201822 }, "geometry": { "type": "Point", "coordinates": [ 6.733491, 6.201822, 0.0 ] } },
{ "type": "Feature", "properties": { "OID_": 0, "Name": "Naotory Nigeria Enterprises", "Address": "373, Nnebisi Road, By Fidelity Bank, West End", "Community": "Asaba", "LGA": "Oshimili South", "State": "Delta", "Longitude": 6.717266, "Latitude": 6.206255 }, "geometry": { "type": "Point", "coordinates": [ 6.717266, 6.206255, 0.0 ] } },
{ "type": "Feature", "properties": { "OID_": 0, "Name": "Kissito Ventures", "Address": "No. 5, Ekelie Street, Off Dla Road", "Community": "Asaba", "LGA": "Oshimili South", "State": "Delta", "Longitude": 6.703312, "Latitude": 6.203516 }, "geometry": { "type": "Point", "coordinates": [ 6.703312, 6.203516, 0.0 ] } },
{ "type": "Feature", "properties": { "OID_": 0, "Name": "Honourablee24", "Address": "Nnebisi Road, Asaba", "Community": "Asaba", "LGA": "Oshimili South", "State": "Delta", "Longitude": 6.729688, "Latitude": 6.203392 }, "geometry": { "type": "Point", "coordinates": [ 6.729688, 6.203392, 0.0 ] } },
{ "type": "Feature", "properties": { "OID_": 0, "Name": "Tivo Supermarket", "Address": "Airport Road", "Community": "Warri", "LGA": "Uvwie", "State": "Delta", "Longitude": 5.767258, "Latitude": 5.542686 }, "geometry": { "type": "Point", "coordinates": [ 5.767258, 5.542686, 0.0 ] } },
{ "type": "Feature", "properties": { "OID_": 0, "Name": "Esco Supermarket", "Address": "Udu Road", "Community": "Warri", "LGA": "Uvwie", "State": "Delta", "Longitude": 5.779778, "Latitude": 5.525712 }, "geometry": { "type": "Point", "coordinates": [ 5.779778, 5.525712, 0.0 ] } },
{ "type": "Feature", "properties": { "OID_": 0, "Name": "Delta State Shopping Mall", "Address": "Effurun Roundabout, Warri Port Expressway", "Community": "Warri", "LGA": "Uvwie", "State": "Delta", "Longitude": 5.782939, "Latitude": 5.571038 }, "geometry": { "type": "Point", "coordinates": [ 5.782939, 5.571038, 0.0 ] } },
{ "type": "Feature", "properties": { "OID_": 0, "Name": "Mom Civic Centre", "Address": "Airport Road", "Community": "Warri", "LGA": "Warri South", "State": "Delta", "Longitude": 5.736880, "Latitude": 5.530305 }, "geometry": { "type": "Point", "coordinates": [ 5.73688, 5.530305, 0.0 ] } },
{ "type": "Feature", "properties": { "OID_": 0, "Name": "Robson Shopping Plaza", "Address": "Okumagba Avenue", "Community": "Warri", "LGA": "Warri South", "State": "Delta", "Longitude": 5.760623, "Latitude": 5.526108 }, "geometry": { "type": "Point", "coordinates": [ 5.760623, 5.526108, 0.0 ] } },
{ "type": "Feature", "properties": { "OID_": 0, "Name": "Edewor Shopping Centre", "Address": "Effurun\/ Sapele Road, Warri", "Community": "Warri", "LGA": "Uvwie", "State": "Delta", "Longitude": 5.779522, "Latitude": 5.536181 }, "geometry": { "type": "Point", "coordinates": [ 5.779522, 5.536181, 0.0 ] } },
{ "type": "Feature", "properties": { "OID_": 0, "Name": "Ped Supermarket", "Address": "Amassoma - Tombia Bridge", "Community": "Yenegoa", "LGA": "Yenegoa", "State": "Bayelsa", "Longitude": 6.363494, "Latitude": 4.963646 }, "geometry": { "type": "Point", "coordinates": [ 6.363494, 4.963646, 0.0 ] } },
{ "type": "Feature", "properties": { "OID_": 0, "Name": "Barbie Supermarket", "Address": "Osusu-Epie Plaza,, Mbiama-Yenagoa Road", "Community": "Yenegoa", "LGA": "Yenegoa", "State": "Bayelsa", "Longitude": 6.288328, "Latitude": 4.931378 }, "geometry": { "type": "Point", "coordinates": [ 6.288328, 4.931378, 0.0 ] } },
{ "type": "Feature", "properties": { "OID_": 0, "Name": "Oqua's Plaza", "Address": "MCC Road", "Community": "Calabar", "LGA": "Calabar Municipal", "State": "Cross River", "Longitude": 8.335239, "Latitude": 4.987583 }, "geometry": { "type": "Point", "coordinates": [ 8.335239, 4.987583, 0.0 ] } },
{ "type": "Feature", "properties": { "OID_": 0, "Name": "Livingston Shopping Complex", "Address": "Ndidem Usang Iso Road", "Community": "Calabar", "LGA": "Calabar Municipal", "State": "Cross River", "Longitude": 8.341815, "Latitude": 4.986334 }, "geometry": { "type": "Point", "coordinates": [ 8.341815, 4.986334, 0.0 ] } }
]
}
